,Identificador,Nombre,Latitud,Longitud
0,Restaurante Italiano,Ôven Mozzarella Bar,40.41924524133954,-3.6978500877927485
1,Restaurante Italiano,Pizzaiolo,40.42379534723905,-3.698597330722856
2,Restaurante Italiano,La Tavernetta,40.42607635914717,-3.6941559395385597
3,Restaurante Italiano,Pizzeria Italiana Piccolo Diavolo,40.4115292313695,-3.695595850047005
4,Restaurante Italiano,Nina Pasta Bar,40.409508,-3.7088363
5,Restaurante Italiano,Trattoria Malatesta,40.416788,-3.707182
6,Restaurante Italiano,la saletta,40.41163590801957,-3.6986855712936584
7,Restaurante Italiano,Fellina,40.430752,-3.694272
8,Restaurante Italiano,Numa,40.42332677352945,-3.6836398220709308
9,Restaurante Italiano,Trattoria In Crescendo,40.39458232012004,-3.6983880942169574
10,Restaurante Italiano,Trattoria Arcangelo,40.41336961522739,-3.6902642454019836
11,Restaurante Italiano,Flavia Restaurante & Bar,40.42247356448254,-3.689587219885726
12,Restaurante Italiano,Trattoria Popolare,40.427536,-3.700076
13,Restaurante Italiano,La Mucca,40.427174,-3.701826
14,Restaurante Italiano,Don Giovanni,40.407648,-3.680188
15,Restaurante Italiano,Orsomatto,40.434012899977404,-3.7156319618225093
16,Restaurante Italiano,Grosso Napoletano,40.42602629298819,-3.6770535074744846
17,Restaurante Italiano,La Tagliatella,40.41973334799455,-3.706735265471105
18,Restaurante Italiano,Pizzería Vesuvio,40.4205749566079,-3.700829195519843
19,Restaurante Italiano,Bosco de Lobos,40.424150785649374,-3.6990139940797278
20,Restaurante Italiano,Matteo Cucina Italiana,40.427054401800795,-3.685701435792598
21,Restaurante Italiano,Aió,40.42245957839195,-3.703875015403938
22,Restaurante Italiano,Trattoria Manzoni,40.439707551603554,-3.6994823994838995
23,Restaurante Italiano,Grosso Napoletano,40.433806482172656,-3.698192419929712
24,Restaurante Italiano,Numa Pompilio,40.423323,-3.684077
25,Restaurante Italiano,Restaurante A vÁnvera,40.439819598028876,-3.692768587460466
26,Restaurante Italiano,Gioia Restaurante,40.422075,-3.69859
27,Restaurante Italiano,Anema e Core,40.41798081014006,-3.7083301999038505
28,Restaurante Italiano,Ôven Mozzarella Bar,40.409570819758954,-3.693256875486928
29,Restaurante Italiano,Reginella,40.4449790213537,-3.6957598243400587
30,Restaurante Italiano,Mercato Ballaró,40.43101226275812,-3.6969885796680155
31,Restaurante Italiano,Propaganda,40.420922,-3.69733
32,Restaurante Italiano,Trattoria Pulcinella,40.424623321374746,-3.6964957038692723
33,Restaurante Italiano,Accademia Del Gusto,40.44291207911045,-3.6962358102437545
34,Restaurante Italiano,Regno di Napoli Madrid,40.42787497934474,-3.703507731822995
35,Restaurante Italiano,La Mafia se sienta a la mesa,40.425704898432215,-3.688945279786655
36,Restaurante Italiano,Il Piccolino Della Farfalla,40.41404179984918,-3.700965423239417
37,Restaurante Italiano,La Pasa,40.42709975350566,-3.706565739454684
38,Restaurante Italiano,La gula,40.425611080827835,-3.7022436197720636
39,Restaurante Italiano,Pizza Napoli,40.44868427705434,-3.6746085110692115
40,Restaurante Italiano,Oliveto,40.40971280938963,-3.696233463330332
41,Restaurante Italiano,Casa Marco,40.431631974409356,-3.715734373598021
42,Restaurante Italiano,La Piperna,40.464159,-3.69312
43,Restaurante Italiano,La Pentola Magica,40.405021,-3.682701
44,Restaurante Italiano,L'Isola Bella,40.42521495544206,-3.7032261325036795
45,Restaurante Italiano,La Nonna,40.45604438679416,-3.688787925138324
46,Restaurante Italiano,Premiata Fornería Ballaro,40.43775312760651,-3.699957238301775
47,Restaurante Italiano,Ti amo,40.47614256104356,-3.7069891339355143
48,Restaurante Italiano,otto e undici,40.44184462582591,-3.6983441211987915
49,Restaurante Italiano,Trattoria La Famiglia,40.4006621329573,-3.7516301931197833
50,Restaurante Italiano,Passaparola,40.38803168437286,-3.765899738174933
51,Restaurante Italiano,Novecento,40.39203801252386,-3.755396432561903
52,Restaurante Italiano,Grazie Mille Kitchen Bar,40.41619934033112,-3.7075299017429737
53,Restaurante Italiano,Pappone Trattoria,40.44403,-3.6543283
54,Restaurante Italiano,La Temeraria,40.411739738757525,-3.7002843618392944
55,Restaurante Italiano,Maruzzella,40.44651099762922,-3.6995739026256445
56,Restaurante Italiano,A'Fenestella,40.46818813882213,-3.6386468870295485
57,Restaurante Italiano,trattoria La Forchetta,40.46542388075185,-3.6921876626996957
58,Restaurante Italiano,La Tagliatella,40.45638291265772,-3.619111118155569
59,Restaurante Italiano,La Tagliatella,40.439228,-3.673308
60,Restaurante Italiano,Il Pastaio,40.44185323460495,-3.6969236879961165
61,Restaurante Italiano,El Kiosco de la Pizza,40.396978364554265,-3.765598730114114
62,Restaurante Italiano,La Tagliatella,40.44046493643081,-3.6285495536538015
63,Restaurante Italiano,La Tagliatella,40.44819919660656,-3.695370356832931
64,Restaurante Italiano,La Tagliatella,40.390959,-3.701159
65,Restaurante Italiano,Ginos Dr Esquerdo 66,40.41376561895185,-3.6699056625366215
66,Restaurante Italiano,La Tagliatella,40.363285780515625,-3.739275476043527
67,Restaurante Italiano,La Mafia se sienta a la Mesa,40.47486409586766,-3.6876446960703855
68,Restaurante Italiano,Finocchio Ristorante,40.40735996003684,-3.704146406669479
69,Restaurante Italiano,La Tagliatella,40.44401170932558,-3.6559012546479686
70,Restaurante Italiano,Il Pezzo Di Giuseppe,40.414872036622405,-3.700387948900371
71,Restaurante Italiano,Giulietta,40.46021896025269,-3.6323826762236417
72,Restaurante Italiano,La Cocina De Payuri,40.401948394891974,-3.6906252886179813
73,Restaurante Italiano,L'Officina,40.39733109159207,-3.6832414038732795
74,Restaurante Italiano,Il Profumo,40.45651546085862,-3.6453540212010824
75,Restaurante Italiano,L'Altro Mondo,40.43973027511157,-3.7899254007591074
76,Restaurante Italiano,Bresca,40.410817,-3.699323
77,Restaurante Italiano,Toto e Peppino,40.42436242923625,-3.6952127178163776
78,Restaurante Italiano,Il Bambino,40.39241845585657,-3.6660196308553745
79,Restaurante Italiano,Ginos Ribera de Curtidores,40.40459928962177,-3.7067639286717298
80,Restaurante Italiano,La Tagliatella,40.504101,-3.706669
81,Restaurante Italiano,Piccola Roma,40.440242408630255,-3.7897475495793977
82,Restaurante Italiano,La Nicoletta Ristorante-Pizza,40.42689135073129,-3.6898735829056326
83,Restaurante Italiano,Restaurante Lapizza+sana,40.45743757388201,-3.6246136990835343
84,Restaurante Italiano,Porca Miseria,40.402476,-3.71352
85,Restaurante Italiano,La Trattoria di Aluche,40.39024159467983,-3.753060837090632
86,Restaurante Italiano,Pummarola,40.44084524585593,-3.7884298583827007
87,Restaurante Italiano,Gaeta Caffè Pizzería,40.500544102,-3.671527462
88,Restaurante Italiano,Lamucca,40.423160346582144,-3.7040597217866043
89,Restaurante Italiano,Ginos Méndez Álvaro,40.3927510444405,-3.6782559441417138
90,Restaurante Italiano,La Bella Anna,40.5035898,-3.7052565
91,Restaurante Italiano,L'Angelina,40.45676170441099,-3.7845003922030847
92,Restaurante Italiano,O Mamma Mia,40.39480732772427,-3.676478806234899
93,Restaurante Italiano,Rock & Ribs,40.436830510346354,-3.6380368480176046
94,Restaurante Italiano,Mia Rafaella Ristorante,40.462595917065784,-3.6374006859707366
95,Restaurante Italiano,Piccolina,40.483752165971765,-3.70044225472674
96,Restaurante Italiano,Restaurante OVO Ristorante,40.464790815533654,-3.7855363837110807
97,Restaurante Italiano,Restaurante Fratelli,40.389381,-3.760396
98,Restaurante Italiano,La Pizza Italia,40.40829580884911,-3.627882967816343
99,Restaurante Italiano,Trattoria Di Aluche,40.38888405348391,-3.7660243209577686
